{"airports":[{"code":"BZD","display_name":"Balranald","international_airport":false,"regional_airport":false,"location":{"latitude":-34.616665,"longitude":143.61667},"currency_code":"AUD","timezone":"Australia/Sydney","country":{"code":"AU","display_name":"Australia"}},{"code":"BZE","display_name":"Belize","international_airport":false,"regional_airport":false,"location":{"latitude":17.533333,"longitude":-88.3},"currency_code":"BZD","timezone":"Canada/Mountain","country":{"code":"BZ","display_name":"Belize"}},{"code":"BZG","display_name":"Bydgoszcz","international_airport":false,"regional_airport":false,"location":{"latitude":53.266666,"longitude":18.0},"currency_code":"PLN","timezone":"Europe/Warsaw","country":{"code":"PL","display_name":"Poland"}},{"code":"BZI","display_name":"Balikesir","international_airport":false,"regional_airport":false,"location":{"latitude":39.616665,"longitude":27.933332},"currency_code":"TRL","timezone":"Europe/Istanbul","country":{"code":"TR","display_name":"Turkey"}},{"code":"BZK","display_name":"Briansk","international_airport":false,"regional_airport":false,"location":{"latitude":53.266666,"longitude":34.333332},"currency_code":"RUB","timezone":"Europe/Moscow","country":{"code":"RU","display_name":"Russian Fed"}},{"code":"BZL","display_name":"Barisal","international_airport":false,"regional_airport":false,"location":{"latitude":22.666666,"longitude":90.333336},"currency_code":"BDT","timezone":"Asia/Dhaka","country":{"code":"BD","display_name":"Bangladesh"}},{"code":"BZN","display_name":"Bozeman","international_airport":false,"regional_airport":false,"location":{"latitude":45.766666,"longitude":-111.15},"currency_code":"USD","timezone":"America/Denver","country":{"code":"US","display_name":"United States"}},{"code":"BZO","display_name":"Bolzano","international_airport":false,"regional_airport":false,"location":{"latitude":46.45,"longitude":11.316667},"currency_code":"EUR","timezone":"Europe/Rome","country":{"code":"IT","display_name":"Italy"}},{"code":"BZP","display_name":"Bizant","international_airport":false,"regional_airport":false,"location":{"latitude":-14.5,"longitude":144.06667},"currency_code":"AUD","timezone":"Australia/Brisbane","country":{"code":"AU","display_name":"Australia"}},{"code":"BZR","display_name":"Beziers","international_airport":false,"regional_airport":false,"location":{"latitude":43.316666,"longitude":3.35},"currency_code":"EUR","timezone":"Europe/Paris","country":{"code":"FR","display_name":"France"}},{"code":"BZU","display_name":"Buta","international_airport":false,"regional_airport":false,"location":{"latitude":2.8166666,"longitude":24.833334},"currency_code":"CDF","timezone":"Africa/Johannesburg","country":{"code":"CD","display_name":"Dem Rep Congo"}},{"code":"BZV","display_name":"Brazzaville","international_airport":false,"regional_airport":false,"location":{"latitude":-4.25,"longitude":15.25},"currency_code":"XAF","timezone":"Africa/Algiers","country":{"code":"CG","display_name":"Congo"}},{"code":"BZY","display_name":"Beltsy","international_airport":false,"regional_airport":false,"location":{"latitude":47.733334,"longitude":27.683332},"currency_code":"MDL","timezone":"Europe/Rome","country":{"code":"MD","display_name":"Moldova"}},{"code":"BZZ","display_name":"Brize Norton","international_airport":false,"regional_airport":false,"location":{"latitude":51.733334,"longitude":-1.5833333},"currency_code":"GBP","timezone":"Europe/London","country":{"code":"GB","display_name":"United Kingdom"}},{"code":"CAB","display_name":"Cabinda","international_airport":false,"regional_airport":false,"location":{"latitude":-5.5666666,"longitude":12.2},"currency_code":"AON","timezone":"Africa/Algiers","country":{"code":"AO","display_name":"Angola"}},{"code":"CAC","display_name":"Cascavel","international_airport":false,"regional_airport":false,"location":{"latitude":-24.983334,"longitude":-53.483334},"currency_code":"USD","timezone":"America/Sao_Paulo","country":{"code":"BR","display_name":"Brazil"}},{"code":"CAD","display_name":"Cadillac","international_airport":false,"regional_airport":false,"location":{"latitude":44.266666,"longitude":-85.416664},"currency_code":"USD","timezone":"America/New_York","country":{"code":"US","display_name":"United States"}},{"code":"CAE","display_name":"Columbia","international_airport":false,"regional_airport":false,"location":{"latitude":33.933334,"longitude":-81.11667},"currency_code":"USD","timezone":"America/New_York","country":{"code":"US","display_name":"United States"}},{"code":"CAF","display_name":"Carauari","international_airport":false,"regional_airport":false,"location":{"latitude":-4.9166665,"longitude":-66.95},"currency_code":"USD","timezone":"America/New_York","country":{"code":"BR","display_name":"Brazil"}},{"code":"CAG","display_name":"Cagliari","international_airport":false,"regional_airport":false,"location":{"latitude":39.233334,"longitude":9.05},"currency_code":"EUR","timezone":"Europe/Rome","country":{"code":"IT","display_name":"Italy"}},{"code":"CAI","display_name":"Cairo","international_airport":false,"regional_airport":false,"location":{"latitude":30.116667,"longitude":31.4},"currency_code":"EGP","timezone":"Africa/Cairo","country":{"code":"EG","display_name":"Egypt"}},{"code":"CAJ","display_name":"Canaima","international_airport":false,"regional_airport":false,"location":{"latitude":0.0,"longitude":0.0},"currency_code":"VEB","timezone":"America/Caracas","country":{"code":"VE","display_name":"Venezuela"}},{"code":"CAK","display_name":"Akron Canton","international_airport":false,"regional_airport":false,"location":{"latitude":40.916668,"longitude":-81.433334},"currency_code":"USD","timezone":"America/New_York","country":{"code":"US","display_name":"United States"}},{"code":"CAL","display_name":"Campbeltown","international_airport":false,"regional_airport":false,"location":{"latitude":55.433334,"longitude":-5.6},"currency_code":"GBP","timezone":"Europe/London","country":{"code":"GB","display_name":"United Kingdom"}},{"code":"CAM","display_name":"Camiri","international_airport":false,"regional_airport":false,"location":{"latitude":-20.133333,"longitude":-63.55},"currency_code":"BOB","timezone":"America/La_Paz","country":{"code":"BO","display_name":"Bolivia"}},{"code":"CAN","display_name":"Guangzhou","international_airport":true,"regional_airport":false,"location":{"latitude":23.183332,"longitude":113.25},"currency_code":"CNY","timezone":"Asia/Shanghai","country":{"code":"CN","display_name":"China"}},{"code":"CAP","display_name":"Cap Haitien","international_airport":false,"regional_airport":false,"location":{"latitude":19.783333,"longitude":-72.28333},"currency_code":"HTG","timezone":"America/Chicago","country":{"code":"HT","display_name":"Haiti"}},{"code":"CAQ","display_name":"Caucasia","international_airport":false,"regional_airport":false,"location":{"latitude":8.0,"longitude":-75.26667},"currency_code":"COP","timezone":"America/Bogota","country":{"code":"CO","display_name":"Colombia"}},{"code":"CAS","display_name":"Casablanca","international_airport":false,"regional_airport":false,"location":{"latitude":33.55,"longitude":-7.65},"currency_code":"MAD","timezone":"Africa/Casablanca","country":{"code":"MA","display_name":"Morocco"}},{"code":"CAU","display_name":"Caruaru","international_airport":false,"regional_airport":false,"location":{"latitude":-8.25,"longitude":-35.916668},"currency_code":"USD","timezone":"America/Sao_Paulo","country":{"code":"BR","display_name":"Brazil"}},{"code":"CAV","display_name":"Cazombo","international_airport":false,"regional_airport":false,"location":{"latitude":-11.9,"longitude":22.933332},"currency_code":"AON","timezone":"Africa/Algiers","country":{"code":"AO","display_name":"Angola"}},{"code":"CAW","display_name":"Campos","international_airport":false,"regional_airport":false,"location":{"latitude":-21.7,"longitude":-41.3},"currency_code":"USD","timezone":"America/Sao_Paulo","country":{"code":"BR","display_name":"Brazil"}},{"code":"CAX","display_name":"Carlisle","international_airport":false,"regional_airport":false,"location":{"latitude":54.933334,"longitude":-2.8},"currency_code":"GBP","timezone":"Europe/London","country":{"code":"GB","display_name":"United Kingdom"}},{"code":"CAY","display_name":"Cayenne","international_airport":false,"regional_airport":false,"location":{"latitude":4.8166666,"longitude":-52.35},"currency_code":"EUR","timezone":"America/Cayenne","country":{"code":"GF","display_name":"French Guyana"}},{"code":"CAZ","display_name":"Cobar","international_airport":false,"regional_airport":true,"location":{"latitude":-31.533333,"longitude":145.85},"currency_code":"AUD","timezone":"Australia/Sydney","country":{"code":"AU","display_name":"Australia"}},{"code":"CBA","display_name":"Corner Bay","international_airport":false,"regional_airport":false,"location":{"latitude":0.0,"longitude":0.0},"currency_code":"USD","timezone":"America/Anchorage","country":{"code":"US","display_name":"United States"}},{"code":"CBB","display_name":"Cochabamba","international_airport":false,"regional_airport":false,"location":{"latitude":-17.416666,"longitude":-66.166664},"currency_code":"BOB","timezone":"America/La_Paz","country":{"code":"BO","display_name":"Bolivia"}},{"code":"CBC","display_name":"Cherrabun","international_airport":false,"regional_airport":false,"location":{"latitude":-18.566668,"longitude":125.38333},"currency_code":"AUD","timezone":"Australia/Perth","country":{"code":"AU","display_name":"Australia"}},{"code":"CBD","display_name":"Car Nicobar","international_airport":false,"regional_airport":false,"location":{"latitude":0.0,"longitude":0.0},"currency_code":"INR","timezone":"Asia/Calcutta","country":{"code":"IN","display_name":"India"}},{"code":"CBE","display_name":"Cumberland","international_airport":false,"regional_airport":false,"location":{"latitude":39.6,"longitude":-78.75},"currency_code":"USD","timezone":"America/New_York","country":{"code":"US","display_name":"United States"}},{"code":"CBG","display_name":"Cambridge","international_airport":false,"regional_airport":false,"location":{"latitude":52.2,"longitude":0.16666667},"currency_code":"GBP","timezone":"Europe/London","country":{"code":"GB","display_name":"United Kingdom"}},{"code":"CBH","display_name":"Bechar","international_airport":false,"regional_airport":false,"location":{"latitude":31.633333,"longitude":-2.25},"currency_code":"DZD","timezone":"Africa/Algiers","country":{"code":"DZ","display_name":"Algeria"}},{"code":"CBI","display_name":"Cape Barren Island","international_airport":false,"regional_airport":false,"location":{"latitude":-40.333332,"longitude":148.16667},"currency_code":"AUD","timezone":"Australia/Hobart","country":{"code":"AU","display_name":"Australia"}},{"code":"CBL","display_name":"Ciudad Bolivar","international_airport":false,"regional_airport":false,"location":{"latitude":8.133333,"longitude":-63.533333},"currency_code":"VEB","timezone":"America/Caracas","country":{"code":"VE","display_name":"Venezuela"}},{"code":"CBN","display_name":"Cirebon","international_airport":false,"regional_airport":false,"location":{"latitude":-6.7666664,"longitude":108.55},"currency_code":"IDR","timezone":"Asia/Jakarta","country":{"code":"ID","display_name":"Indonesia"}},{"code":"CBO","display_name":"Cotabato","international_airport":false,"regional_airport":false,"location":{"latitude":7.15,"longitude":124.2},"currency_code":"USD","timezone":"Asia/Manila","country":{"code":"PH","display_name":"Philippines"}},{"code":"CBP","display_name":"Coimbra","international_airport":false,"regional_airport":false,"location":{"latitude":40.15,"longitude":-8.466666},"currency_code":"EUR","timezone":"Europe/Lisbon","country":{"code":"PT","display_name":"Portugal"}},{"code":"CBQ","display_name":"Calabar","international_airport":false,"regional_airport":false,"location":{"latitude":4.9666667,"longitude":8.333333},"currency_code":"NGN","timezone":"Africa/Algiers","country":{"code":"NG","display_name":"Nigeria"}},{"code":"CBR","display_name":"Canberra","international_airport":false,"regional_airport":true,"location":{"latitude":-35.3,"longitude":149.18333},"currency_code":"AUD","timezone":"Australia/Sydney","country":{"code":"AU","display_name":"Australia"}},{"code":"CBS","display_name":"Cabimas","international_airport":false,"regional_airport":false,"location":{"latitude":10.433333,"longitude":-71.45},"currency_code":"VEB","timezone":"America/Caracas","country":{"code":"VE","display_name":"Venezuela"}},{"code":"CBT","display_name":"Catumbela","international_airport":false,"regional_airport":false,"location":{"latitude":-12.283334,"longitude":13.283334},"currency_code":"AON","timezone":"Africa/Algiers","country":{"code":"AO","display_name":"Angola"}},{"code":"CBX","display_name":"Condobolin","international_airport":false,"regional_airport":false,"location":{"latitude":-33.05,"longitude":147.18333},"currency_code":"AUD","timezone":"Australia/Sydney","country":{"code":"AU","display_name":"Australia"}},{"code":"CBY","display_name":"Canobie","international_airport":false,"regional_airport":false,"location":{"latitude":-19.466667,"longitude":140.63333},"currency_code":"AUD","timezone":"Australia/Brisbane","country":{"code":"AU","display_name":"Australia"}},{"code":"CCC","display_name":"Cayo Coco","international_airport":false,"regional_airport":false,"location":{"latitude":22.5,"longitude":-78.5},"currency_code":"CUP","timezone":"America/Havana","country":{"code":"CU","display_name":"Cuba"}},{"code":"CCE","display_name":"St Martin","international_airport":false,"regional_airport":false,"location":{"latitude":18.083334,"longitude":-63.083332},"currency_code":"EUR","timezone":"America/Guadeloupe","country":{"code":"GP","display_name":"Guadeloupe"}},{"code":"CCF","display_name":"Carcassonne","international_airport":false,"regional_airport":false,"location":{"latitude":43.2,"longitude":2.3},"currency_code":"EUR","timezone":"Europe/Paris","country":{"code":"FR","display_name":"France"}},{"code":"CCG","display_name":"Crane","international_airport":false,"regional_airport":false,"location":{"latitude":31.383333,"longitude":-102.36667},"currency_code":"USD","timezone":"America/Chicago","country":{"code":"US","display_name":"United States"}},{"code":"CCI","display_name":"Concordia","international_airport":false,"regional_airport":false,"location":{"latitude":-27.216667,"longitude":-52.166668},"currency_code":"USD","timezone":"America/Sao_Paulo","country":{"code":"BR","display_name":"Brazil"}},{"code":"CCJ","display_name":"Kozhikode","international_airport":false,"regional_airport":false,"location":{"latitude":11.25,"longitude":75.76667},"currency_code":"INR","timezone":"Asia/Calcutta","country":{"code":"IN","display_name":"India"}},{"code":"CCK","display_name":"Cocos Island","international_airport":true,"regional_airport":true,"location":{"latitude":-12.183333,"longitude":96.816666},"currency_code":"AUD","timezone":"Indian/Cocos","country":{"code":"CC","display_name":"Cocos Keeling Isl"}},{"code":"CCM","display_name":"Crisciuma","international_airport":false,"regional_airport":false,"location":{"latitude":-28.75,"longitude":-49.416668},"currency_code":"USD","timezone":"America/Sao_Paulo","country":{"code":"BR","display_name":"Brazil"}},{"code":"CCN","display_name":"Chakcharan","international_airport":false,"regional_airport":false,"location":{"latitude":34.466667,"longitude":65.01667},"currency_code":"AFA","timezone":"Asia/Kabul","country":{"code":"AF","display_name":"Afghanistan"}},{"code":"CCO","display_name":"Carimagua","international_airport":false,"regional_airport":false,"location":{"latitude":4.5666666,"longitude":-71.333336},"currency_code":"COP","timezone":"America/Bogota","country":{"code":"CO","display_name":"Colombia"}},{"code":"CCP","display_name":"Concepcion","international_airport":false,"regional_airport":false,"location":{"latitude":-36.766666,"longitude":-73.05},"currency_code":"USD","timezone":"America/Santiago","country":{"code":"CL","display_name":"Chile"}},{"code":"CCQ","display_name":"Cachoeira","international_airport":false,"regional_airport":false,"location":{"latitude":-12.583333,"longitude":-38.983334},"currency_code":"USD","timezone":"America/Sao_Paulo","country":{"code":"BR","display_name":"Brazil"}},{"code":"CCR","display_name":"Concord","international_airport":false,"regional_airport":false,"location":{"latitude":37.983334,"longitude":-122.066666},"currency_code":"USD","timezone":"America/Los_Angeles","country":{"code":"US","display_name":"United States"}},{"code":"CCS","display_name":"Caracas","international_airport":false,"regional_airport":false,"location":{"latitude":10.6,"longitude":-66.98333},"currency_code":"VEB","timezone":"America/Caracas","country":{"code":"VE","display_name":"Venezuela"}},{"code":"CCT","display_name":"Colonia Catriel","international_airport":false,"regional_airport":false,"location":{"latitude":0.0,"longitude":0.0},"currency_code":"USD","timezone":"America/Buenos_Aires","country":{"code":"AR","display_name":"Argentina"}},{"code":"CCU","display_name":"Kolkata","international_airport":true,"regional_airport":false,"location":{"latitude":22.65,"longitude":88.45},"currency_code":"INR","timezone":"Asia/Calcutta","country":{"code":"IN","display_name":"India"}},{"code":"CCV","display_name":"Craig Cove","international_airport":false,"regional_airport":false,"location":{"latitude":-16.266666,"longitude":167.91667},"currency_code":"VUV","timezone":"Pacific/Noumea","country":{"code":"VU","display_name":"Vanuatu"}},{"code":"CCW","display_name":"Cowell","international_airport":false,"regional_airport":false,"location":{"latitude":-33.633335,"longitude":136.83333},"currency_code":"AUD","timezone":"Australia/Adelaide","country":{"code":"AU","display_name":"Australia"}},{"code":"CCX","display_name":"Caceres","international_airport":false,"regional_airport":false,"location":{"latitude":-16.066668,"longitude":-57.666668},"currency_code":"USD","timezone":"America/New_York","country":{"code":"BR","display_name":"Brazil"}},{"code":"CCY","display_name":"Charles City","international_airport":false,"regional_airport":false,"location":{"latitude":43.066666,"longitude":-92.61667},"currency_code":"USD","timezone":"America/Chicago","country":{"code":"US","display_name":"United States"}},{"code":"CCZ","display_name":"Chub Cay","international_airport":false,"regional_airport":false,"location":{"latitude":25.416666,"longitude":-77.88333},"currency_code":"BSD","timezone":"America/New_York","country":{"code":"BS","display_name":"Bahamas"}},{"code":"CDA","display_name":"Cooinda","international_airport":false,"regional_airport":false,"location":{"latitude":-12.533334,"longitude":132.31667},"currency_code":"AUD","timezone":"Australia/Darwin","country":{"code":"AU","display_name":"Australia"}},{"code":"CDB","display_name":"Cold Bay","international_airport":false,"regional_airport":false,"location":{"latitude":55.2,"longitude":-162.71666},"currency_code":"USD","timezone":"America/Anchorage","country":{"code":"US","display_name":"United States"}},{"code":"CDC","display_name":"Cedar City","international_airport":false,"regional_airport":false,"location":{"latitude":37.7,"longitude":-113.083336},"currency_code":"USD","timezone":"America/Denver","country":{"code":"US","display_name":"United States"}},{"code":"CDD","display_name":"Cauquira","international_airport":false,"regional_airport":false,"location":{"latitude":15.316667,"longitude":-83.6},"currency_code":"HNL","timezone":"America/Tegucigalpa","country":{"code":"HN","display_name":"Honduras"}},{"code":"CDG","display_name":"Paris (Charles de Gaulle)","international_airport":true,"regional_airport":false,"location":{"latitude":49.0,"longitude":2.5333333},"currency_code":"EUR","timezone":"Europe/Paris","country":{"code":"FR","display_name":"France"}},{"code":"CDH","display_name":"Camden","international_airport":false,"regional_airport":false,"location":{"latitude":33.616665,"longitude":-92.75},"currency_code":"USD","timezone":"America/Chicago","country":{"code":"US","display_name":"United States"}},{"code":"CDJ","display_name":"Conceicao Do Arag","international_airport":false,"regional_airport":false,"location":{"latitude":-8.333333,"longitude":-49.3},"currency_code":"USD","timezone":"America/Sao_Paulo","country":{"code":"BR","display_name":"Brazil"}},{"code":"CDL","display_name":"Candle","international_airport":false,"regional_airport":false,"location":{"latitude":65.9,"longitude":-161.91667},"currency_code":"USD","timezone":"America/Anchorage","country":{"code":"US","display_name":"United States"}},{"code":"CDP","display_name":"Cuddapah","international_airport":false,"regional_airport":false,"location":{"latitude":14.516666,"longitude":78.78333},"currency_code":"INR","timezone":"Asia/Calcutta","country":{"code":"IN","display_name":"India"}},{"code":"CDQ","display_name":"Croydon","international_airport":false,"regional_airport":false,"location":{"latitude":-18.166666,"longitude":142.25},"currency_code":"AUD","timezone":"Australia/Brisbane","country":{"code":"AU","display_name":"Australia"}},{"code":"CDR","display_name":"Chadron","international_airport":false,"regional_airport":false,"location":{"latitude":42.833332,"longitude":-103.083336},"currency_code":"USD","timezone":"America/Chicago","country":{"code":"US","display_name":"United States"}},{"code":"CDV","display_name":"Cordova","international_airport":false,"regional_airport":false,"location":{"latitude":60.483334,"longitude":-145.46666},"currency_code":"USD","timezone":"America/Anchorage","country":{"code":"US","display_name":"United States"}},{"code":"CEB","display_name":"Cebu","international_airport":false,"regional_airport":false,"location":{"latitude":10.316667,"longitude":123.9},"currency_code":"USD","timezone":"Asia/Manila","country":{"code":"PH","display_name":"Philippines"}},{"code":"CEC","display_name":"Crescent City","international_airport":false,"regional_airport":false,"location":{"latitude":41.766666,"longitude":-124.23333},"currency_code":"USD","timezone":"America/Los_Angeles","country":{"code":"US","display_name":"United States"}},{"code":"CED","display_name":"Ceduna","international_airport":false,"regional_airport":false,"location":{"latitude":-32.116665,"longitude":133.7},"currency_code":"AUD","timezone":"Australia/Adelaide","country":{"code":"AU","display_name":"Australia"}},{"code":"CEE","display_name":"Cherepovets","international_airport":false,"regional_airport":false,"location":{"latitude":59.15,"longitude":37.833332},"currency_code":"RUB","timezone":"Europe/Moscow","country":{"code":"RU","display_name":"Russian Fed"}},{"code":"CEH","display_name":"Chelinda","international_airport":false,"regional_airport":false,"location":{"latitude":-10.55,"longitude":33.8},"currency_code":"MWK","timezone":"Africa/Algiers","country":{"code":"MW","display_name":"Malawi"}},{"code":"CEI","display_name":"Chiang Rai","international_airport":false,"regional_airport":false,"location":{"latitude":19.95,"longitude":99.86667},"currency_code":"THB","timezone":"Asia/Bangkok","country":{"code":"TH","display_name":"Thailand"}},{"code":"CEJ","display_name":"Chernigov","international_airport":false,"regional_airport":false,"location":{"latitude":51.5,"longitude":31.3},"currency_code":"UAH","timezone":"Europe/Kiev","country":{"code":"UA","display_name":"Ukraine"}},{"code":"CEK","display_name":"Chelyabinsk","international_airport":false,"regional_airport":false,"location":{"latitude":55.3,"longitude":61.5},"currency_code":"RUB","timezone":"Asia/Yekaterinburg","country":{"code":"RU","display_name":"Russian Fed"}},{"code":"CEM","display_name":"Central","international_airport":false,"regional_airport":false,"location":{"latitude":65.566666,"longitude":-144.9},"currency_code":"USD","timezone":"America/Anchorage","country":{"code":"US","display_name":"United States"}},{"code":"CEN","display_name":"Ciudad Obregon","international_airport":false,"regional_airport":false,"location":{"latitude":27.4,"longitude":-109.833336},"currency_code":"USD","timezone":"America/Hermosillo","country":{"code":"MX","display_name":"Mexico"}},{"code":"CEO","display_name":"Waco Kungo","international_airport":false,"regional_airport":false,"location":{"latitude":-11.416667,"longitude":15.083333},"currency_code":"AON","timezone":"Africa/Algiers","country":{"code":"AO","display_name":"Angola"}},{"code":"CEP","display_name":"Concepcion","international_airport":false,"regional_airport":false,"location":{"latitude":-11.5,"longitude":-66.583336},"currency_code":"BOB","timezone":"America/La_Paz","country":{"code":"BO","display_name":"Bolivia"}},{"code":"CEQ","display_name":"Cannes","international_airport":false,"regional_airport":false,"location":{"latitude":43.55,"longitude":7.0},"currency_code":"EUR","timezone":"Europe/Paris","country":{"code":"FR","display_name":"France"}},{"code":"CER","display_name":"Cherbourg","international_airport":false,"regional_airport":false,"location":{"latitude":49.65,"longitude":-1.4666667},"currency_code":"EUR","timezone":"Europe/Paris","country":{"code":"FR","display_name":"France"}},{"code":"CES","display_name":"Cessnock","international_airport":false,"regional_airport":false,"location":{"latitude":-32.85,"longitude":151.35},"currency_code":"AUD","timezone":"Australia/Sydney","country":{"code":"AU","display_name":"Australia"}},{"code":"CEU","display_name":"Clemson","international_airport":false,"regional_airport":false,"location":{"latitude":34.683334,"longitude":-82.85},"currency_code":"USD","timezone":"America/New_York","country":{"code":"US","display_name":"United States"}},{"code":"CEY","display_name":"Murray","international_airport":false,"regional_airport":false,"location":{"latitude":36.65,"longitude":-88.36667},"currency_code":"USD","timezone":"America/New_York","country":{"code":"US","display_name":"United States"}},{"code":"CEZ","display_name":"Cortez","international_airport":false,"regional_airport":false,"location":{"latitude":37.3,"longitude":-108.61667},"currency_code":"USD","timezone":"America/Denver","country":{"code":"US","display_name":"United States"}},{"code":"CFA","display_name":"Coffee Point","international_airport":false,"regional_airport":false,"location":{"latitude":58.216667,"longitude":-157.5},"currency_code":"USD","timezone":"America/Anchorage","country":{"code":"US","display_name":"United States"}},{"code":"CFB","display_name":"Cabo Frio","international_airport":false,"regional_airport":false,"location":{"latitude":-22.85,"longitude":-42.05},"currency_code":"USD","timezone":"America/Sao_Paulo","country":{"code":"BR","display_name":"Brazil"}},{"code":"CFE","display_name":"Clermont Ferrand","international_airport":false,"regional_airport":false,"location":{"latitude":45.783333,"longitude":3.15},"currency_code":"EUR","timezone":"Europe/Paris","country":{"code":"FR","display_name":"France"}},{"code":"CFG","display_name":"Cienfuegos","international_airport":false,"regional_airport":false,"location":{"latitude":22.15,"longitude":-80.4},"currency_code":"CUP","timezone":"America/Havana","country":{"code":"CU","display_name":"Cuba"}},{"code":"CFH","display_name":"Clifton Hills","international_airport":false,"regional_airport":false,"location":{"latitude":-27.083334,"longitude":138.86667},"currency_code":"AUD","timezone":"Australia/Adelaide","country":{"code":"AU","display_name":"Australia"}},{"code":"CFN","display_name":"Donegal","international_airport":false,"regional_airport":false,"location":{"latitude":55.05,"longitude":-8.333333},"currency_code":"EUR","timezone":"Europe/Dublin","country":{"code":"IE","display_name":"Republic of Ireland"}},{"code":"CFO","display_name":"Confreza","international_airport":false,"regional_airport":false,"location":{"latitude":0.0,"longitude":0.0},"currency_code":"USD","timezone":"America/New_York","country":{"code":"BR","display_name":"Brazil"}},{"code":"CFR","display_name":"Caen","international_airport":false,"regional_airport":false,"location":{"latitude":49.166668,"longitude":-0.45},"currency_code":"EUR","timezone":"Europe/Paris","country":{"code":"FR","display_name":"France"}},{"code":"CFS","display_name":"Coffs Harbour","international_airport":false,"regional_airport":true,"location":{"latitude":-30.316668,"longitude":153.11667},"currency_code":"AUD","timezone":"Australia/Sydney","country":{"code":"AU","display_name":"Australia"}},{"code":"CFU","display_name":"Kerkyra","international_airport":false,"regional_airport":false,"location":{"latitude":39.6,"longitude":19.916666},"currency_code":"EUR","timezone":"Europe/Athens","country":{"code":"GR","display_name":"Greece"}},{"code":"CGA","display_name":"Craig","international_airport":false,"regional_airport":false,"location":{"latitude":55.483334,"longitude":-133.1},"currency_code":"USD","timezone":"America/Anchorage","country":{"code":"US","display_name":"United States"}},{"code":"CGB","display_name":"Cuiaba","international_airport":false,"regional_airport":false,"location":{"latitude":-15.65,"longitude":-56.116665},"currency_code":"USD","timezone":"America/New_York","country":{"code":"BR","display_name":"Brazil"}},{"code":"CGC","display_name":"Cape Gloucester","international_airport":false,"regional_airport":false,"location":{"latitude":-5.45,"longitude":148.43333},"currency_code":"PGK","timezone":"Pacific/Saipan","country":{"code":"PG","display_name":"Papua New Guinea"}},{"code":"CGD","display_name":"Changde","international_airport":false,"regional_airport":false,"location":{"latitude":29.033333,"longitude":111.683334},"currency_code":"CNY","timezone":"Asia/Shanghai","country":{"code":"CN","display_name":"China"}},{"code":"CGF","display_name":"Cleveland (Cuyahoga)","international_airport":false,"regional_airport":false,"location":{"latitude":41.55,"longitude":-81.48333},"currency_code":"USD","timezone":"America/New_York","country":{"code":"US","display_name":"United States"}},{"code":"CGH","display_name":"Sao Paulo (Congonhas)","international_airport":false,"regional_airport":false,"location":{"latitude":-23.183332,"longitude":-50.716667},"currency_code":"USD","timezone":"America/Sao_Paulo","country":{"code":"BR","display_name":"Brazil"}},{"code":"CGI","display_name":"Cape Girardeau","international_airport":false,"regional_airport":false,"location":{"latitude":37.216667,"longitude":-89.566666},"currency_code":"USD","timezone":"America/Chicago","country":{"code":"US","display_name":"United States"}},{"code":"CGJ","display_name":"Chingola","international_airport":false,"regional_airport":false,"location":{"latitude":-12.516666,"longitude":27.883333},"currency_code":"ZMK","timezone":"Africa/Johannesburg","country":{"code":"ZM","display_name":"Zambia"}},{"code":"CGK","display_name":"Jakarta","international_airport":true,"regional_airport":false,"location":{"latitude":-6.116667,"longitude":106.65},"currency_code":"IDR","timezone":"Asia/Jakarta","country":{"code":"ID","display_name":"Indonesia"}},{"code":"CGM","display_name":"Camiguin","international_airport":false,"regional_airport":false,"location":{"latitude":9.25,"longitude":124.7},"currency_code":"USD","timezone":"Asia/Manila","country":{"code":"PH","display_name":"Philippines"}},{"code":"CGN","display_name":"Cologne","international_airport":false,"regional_airport":false,"location":{"latitude":50.866665,"longitude":7.133333},"currency_code":"EUR","timezone":"Europe/Berlin","country":{"code":"DE","display_name":"Germany"}},{"code":"CGO","display_name":"Zhengzhou","international_airport":false,"regional_airport":false,"location":{"latitude":34.766666,"longitude":113.71667},"currency_code":"CNY","timezone":"Asia/Shanghai","country":{"code":"CN","display_name":"China"}},{"code":"CGP","display_name":"Chittagong","international_airport":false,"regional_airport":false,"location":{"latitude":22.25,"longitude":91.816666},"currency_code":"BDT","timezone":"Asia/Dhaka","country":{"code":"BD","display_name":"Bangladesh"}},{"code":"CGQ","display_name":"Changchun","international_airport":false,"regional_airport":false,"location":{"latitude":43.833332,"longitude":125.333336},"currency_code":"CNY","timezone":"Asia/Shanghai","country":{"code":"CN","display_name":"China"}},{"code":"CGR","display_name":"Campo Grande","international_airport":false,"regional_airport":false,"location":{"latitude":-20.466667,"longitude":-54.666668},"currency_code":"USD","timezone":"America/New_York","country":{"code":"BR","display_name":"Brazil"}},{"code":"CGS","display_name":"College Park","international_airport":false,"regional_airport":false,"location":{"latitude":39.0,"longitude":-76.95},"currency_code":"USD","timezone":"America/New_York","country":{"code":"US","display_name":"United States"}},{"code":"CGT","display_name":"Chinguitti","international_airport":false,"regional_airport":false,"location":{"latitude":20.416666,"longitude":-12.4},"currency_code":"MRO","timezone":"Africa/Nouakchott","country":{"code":"MR","display_name":"Mauritania"}},{"code":"CGX","display_name":"Chicago","international_airport":false,"regional_airport":false,"location":{"latitude":41.866665,"longitude":-87.6},"currency_code":"USD","timezone":"America/Chicago","country":{"code":"US","display_name":"United States"}},{"code":"CGY","display_name":"Cagayan De Oro","international_airport":false,"regional_airport":false,"location":{"latitude":8.416667,"longitude":124.6},"currency_code":"USD","timezone":"Asia/Manila","country":{"code":"PH","display_name":"Philippines"}},{"code":"CHA","display_name":"Chattanooga","international_airport":false,"regional_airport":false,"location":{"latitude":35.033333,"longitude":-85.2},"currency_code":"USD","timezone":"America/New_York","country":{"code":"US","display_name":"United States"}},{"code":"CHB","display_name":"Chilas","international_airport":false,"regional_airport":false,"location":{"latitude":35.0,"longitude":74.0},"currency_code":"PKR","timezone":"Asia/Karachi","country":{"code":"PK","display_name":"Pakistan"}},{"code":"CHC","display_name":"Christchurch","international_airport":true,"regional_airport":false,"location":{"latitude":-43.483334,"longitude":172.53334},"currency_code":"NZD","timezone":"Pacific/Auckland","country":{"code":"NZ","display_name":"New Zealand"}},{"code":"CHG","display_name":"Chaoyang","international_airport":false,"regional_airport":false,"location":{"latitude":0.0,"longitude":0.0},"currency_code":"CNY","timezone":"Asia/Shanghai","country":{"code":"CN","display_name":"China"}},{"code":"CHH","display_name":"Chachapoyas","international_airport":false,"regional_airport":false,"location":{"latitude":-6.2166667,"longitude":-77.9},"currency_code":"PEN","timezone":"America/Lima","country":{"code":"PE","display_name":"Peru"}},{"code":"CHI","display_name":"Chicago","international_airport":false,"regional_airport":false,"location":{"latitude":41.866665,"longitude":-87.75},"currency_code":"USD","timezone":"America/Chicago","country":{"code":"US","display_name":"United States"}},{"code":"CHL","display_name":"Challis","international_airport":false,"regional_airport":false,"location":{"latitude":44.5,"longitude":-114.25},"currency_code":"USD","timezone":"America/Denver","country":{"code":"US","display_name":"United States"}},{"code":"CHM","display_name":"Chimbote","international_airport":false,"regional_airport":false,"location":{"latitude":-9.133333,"longitude":-78.51667},"currency_code":"PEN","timezone":"America/Lima","country":{"code":"PE","display_name":"Peru"}},{"code":"CHO","display_name":"Charlottesville","international_airport":false,"regional_airport":false,"location":{"latitude":38.133335,"longitude":-78.45},"currency_code":"USD","timezone":"America/New_York","country":{"code":"US","display_name":"United States"}},{"code":"CHP","display_name":"Circle Hotsprings","international_airport":false,"regional_airport":false,"location":{"latitude":65.48333,"longitude":-144.66667},"currency_code":"USD","timezone":"America/Anchorage","country":{"code":"US","display_name":"United States"}},{"code":"CHQ","display_name":"Chania","international_airport":false,"regional_airport":false,"location":{"latitude":35.516666,"longitude":24.15},"currency_code":"EUR","timezone":"Europe/Athens","country":{"code":"GR","display_name":"Greece"}},{"code":"CHR","display_name":"Chateauroux","international_airport":false,"regional_airport":false,"location":{"latitude":46.85,"longitude":1.7166667},"currency_code":"EUR","timezone":"Europe/Paris","country":{"code":"FR","display_name":"France"}},{"code":"CHS","display_name":"Charleston (South Carolina)","international_airport":false,"regional_airport":false,"location":{"latitude":32.883335,"longitude":-80.03333},"currency_code":"USD","timezone":"America/New_York","country":{"code":"US","display_name":"United States"}},{"code":"CHT","display_name":"Chatham Islands","international_airport":false,"regional_airport":false,"location":{"latitude":-20.033333,"longitude":146.26666},"currency_code":"NZD","timezone":"Pacific/Chatham","country":{"code":"NZ","display_name":"New Zealand"}},{"code":"CHU","display_name":"Chuathbaluk","international_airport":false,"regional_airport":false,"location":{"latitude":61.666668,"longitude":-159.25},"currency_code":"USD","timezone":"America/Anchorage","country":{"code":"US","display_name":"United States"}},{"code":"CHV","display_name":"Chaves","international_airport":false,"regional_airport":false,"location":{"latitude":41.733334,"longitude":-7.4666667},"currency_code":"EUR","timezone":"Europe/Lisbon","country":{"code":"PT","display_name":"Portugal"}},{"code":"CHW","display_name":"Jiuquan","international_airport":false,"regional_airport":false,"location":{"latitude":39.783333,"longitude":98.5},"currency_code":"CNY","timezone":"Asia/Shanghai","country":{"code":"CN","display_name":"China"}},{"code":"CHX","display_name":"Changuinola","international_airport":false,"regional_airport":false,"location":{"latitude":9.466666,"longitude":-82.51667},"currency_code":"PAB","timezone":"America/Panama","country":{"code":"PA","display_name":"Panama"}},{"code":"CHY","display_name":"Choiseul Bay","international_airport":false,"regional_airport":false,"location":{"latitude":-6.6666665,"longitude":156.46666},"currency_code":"SBD","timezone":"Pacific/Noumea","country":{"code":"SB","display_name":"Solomon Islands"}},{"code":"CIA","display_name":"Rome","international_airport":false,"regional_airport":false,"location":{"latitude":41.783333,"longitude":12.583333},"currency_code":"EUR","timezone":"Europe/Rome","country":{"code":"IT","display_name":"Italy"}},{"code":"CIB","display_name":"Catalina Isl","international_airport":false,"regional_airport":false,"location":{"latitude":33.4,"longitude":-118.416664},"currency_code":"USD","timezone":"America/Los_Angeles","country":{"code":"US","display_name":"United States"}},{"code":"CIC","display_name":"Chico","international_airport":false,"regional_airport":false,"location":{"latitude":39.783333,"longitude":-121.85},"currency_code":"USD","timezone":"America/Los_Angeles","country":{"code":"US","display_name":"United States"}},{"code":"CID","display_name":"Cedar Rapids","international_airport":false,"regional_airport":false,"location":{"latitude":41.883335,"longitude":-91.7},"currency_code":"USD","timezone":"America/Chicago","country":{"code":"US","display_name":"United States"}},{"code":"CIF","display_name":"Chifeng","international_airport":false,"regional_airport":false,"location":{"latitude":42.283333,"longitude":118.933334},"currency_code":"CNY","timezone":"Asia/Shanghai","country":{"code":"CN","display_name":"China"}},{"code":"CIG","display_name":"Craig","international_airport":false,"regional_airport":false,"location":{"latitude":40.5,"longitude":-107.55},"currency_code":"USD","timezone":"America/Denver","country":{"code":"US","display_name":"United States"}},{"code":"CIH","display_name":"Changzhi","international_airport":false,"regional_airport":false,"location":{"latitude":36.083332,"longitude":113.2},"currency_code":"CNY","timezone":"Asia/Shanghai","country":{"code":"CN","display_name":"China"}},{"code":"CIJ","display_name":"Cobija","international_airport":false,"regional_airport":false,"location":{"latitude":-11.016666,"longitude":-68.75},"currency_code":"BOB","timezone":"America/La_Paz","country":{"code":"BO","display_name":"Bolivia"}},{"code":"CIK","display_name":"Chalkyitsik","international_airport":false,"regional_airport":false,"location":{"latitude":66.63333,"longitude":-143.81667},"currency_code":"USD","timezone":"America/Anchorage","country":{"code":"US","display_name":"United States"}},{"code":"CIL","display_name":"Council","international_airport":false,"regional_airport":false,"location":{"latitude":64.916664,"longitude":-163.73334},"currency_code":"USD","timezone":"America/Anchorage","country":{"code":"US","display_name":"United States"}},{"code":"CIM","display_name":"Cimitarra","international_airport":false,"regional_airport":false,"location":{"latitude":6.3166666,"longitude":-73.95},"currency_code":"COP","timezone":"America/Bogota","country":{"code":"CO","display_name":"Colombia"}},{"code":"CIN","display_name":"Derby","international_airport":false,"regional_airport":false,"location":{"latitude":-17.0,"longitude":123.0},"currency_code":"AUD","timezone":"Australia/Perth","country":{"code":"AU","display_name":"Australia"}},{"code":"CIO","display_name":"Concepcion","international_airport":false,"regional_airport":false,"location":{"latitude":-23.433332,"longitude":-57.416668},"currency_code":"PYG","timezone":"America/Asuncion","country":{"code":"PY","display_name":"Paraguay"}},{"code":"CIP","display_name":"Chipata","international_airport":false,"regional_airport":false,"location":{"latitude":-13.666667,"longitude":34.7},"currency_code":"ZMK","timezone":"Africa/Johannesburg","country":{"code":"ZM","display_name":"Zambia"}},{"code":"CIR","display_name":"Cairo","international_airport":false,"regional_airport":false,"location":{"latitude":37.066666,"longitude":-89.21667},"currency_code":"USD","timezone":"America/Chicago","country":{"code":"US","display_name":"United States"}},{"code":"CIS","display_name":"Canton Isl","international_airport":false,"regional_airport":false,"location":{"latitude":-0.016666668,"longitude":0.0},"currency_code":"AUD","timezone":"Pacific/Tongatapu","country":{"code":"KI","display_name":"Kiribati"}},{"code":"CIT","display_name":"Chimkent","international_airport":false,"regional_airport":false,"location":{"latitude":42.3,"longitude":69.433334},"currency_code":"KZT","timezone":"Asia/Almaty","country":{"code":"KZ","display_name":"Kazakhstan"}},{"code":"CIU","display_name":"Sault Ste Marie","international_airport":false,"regional_airport":false,"location":{"latitude":46.233334,"longitude":-84.46667},"currency_code":"USD","timezone":"America/New_York","country":{"code":"US","display_name":"United States"}},{"code":"CIV","display_name":"Chomley","international_airport":false,"regional_airport":false,"location":{"latitude":55.216667,"longitude":-132.21666},"currency_code":"USD","timezone":"America/Anchorage","country":{"code":"US","display_name":"United States"}},{"code":"CIW","display_name":"Canouan Island","international_airport":false,"regional_airport":false,"location":{"latitude":12.716666,"longitude":-61.333332},"currency_code":"XCD","timezone":"America/New_York","country":{"code":"GD","display_name":"Grenada"}},{"code":"CIX","display_name":"Chiclayo","international_airport":false,"regional_airport":false,"location":{"latitude":-6.7833333,"longitude":-79.816666},"currency_code":"PEN","timezone":"America/Lima","country":{"code":"PE","display_name":"Peru"}},{"code":"CIZ","display_name":"Coari","international_airport":false,"regional_airport":false,"location":{"latitude":-4.133333,"longitude":-63.116665},"currency_code":"USD","timezone":"America/New_York","country":{"code":"BR","display_name":"Brazil"}},{"code":"CJA","display_name":"Cajamarca","international_airport":false,"regional_airport":false,"location":{"latitude":-7.116667,"longitude":-78.48333},"currency_code":"PEN","timezone":"America/Lima","country":{"code":"PE","display_name":"Peru"}},{"code":"CJB","display_name":"Coimbatore","international_airport":false,"regional_airport":false,"location":{"latitude":11.0,"longitude":76.95},"currency_code":"INR","timezone":"Asia/Calcutta","country":{"code":"IN","display_name":"India"}},{"code":"CJC","display_name":"Calama","international_airport":false,"regional_airport":false,"location":{"latitude":-22.483334,"longitude":-68.9},"currency_code":"USD","timezone":"America/Santiago","country":{"code":"CL","display_name":"Chile"}},{"code":"CJD","display_name":"Candilejas","international_airport":false,"regional_airport":false,"location":{"latitude":1.3333334,"longitude":-74.26667},"currency_code":"COP","timezone":"America/Bogota","country":{"code":"CO","display_name":"Colombia"}},{"code":"CJJ","display_name":"Cheong Ju City","international_airport":false,"regional_airport":false,"location":{"latitude":36.716667,"longitude":127.5},"currency_code":"KRW","timezone":"Asia/Seoul","country":{"code":"KR","display_name":"Korea"}},{"code":"CJL","display_name":"Chitral","international_airport":false,"regional_airport":false,"location":{"latitude":35.866665,"longitude":71.78333},"currency_code":"PKR","timezone":"Asia/Karachi","country":{"code":"PK","display_name":"Pakistan"}},{"code":"CJM","display_name":"Chumphon","international_airport":false,"regional_airport":false,"location":{"latitude":10.583333,"longitude":99.23333},"currency_code":"THB","timezone":"Asia/Bangkok","country":{"code":"TH","display_name":"Thailand"}},{"code":"CJS","display_name":"Ciudad Juarez","international_airport":false,"regional_airport":false,"location":{"latitude":31.633333,"longitude":-106.416664},"currency_code":"USD","timezone":"America/Mexico_City","country":{"code":"MX","display_name":"Mexico"}},{"code":"CJT","display_name":"Comitan","international_airport":false,"regional_airport":false,"location":{"latitude":16.166666,"longitude":-92.05},"currency_code":"USD","timezone":"America/Mexico_City","country":{"code":"MX","display_name":"Mexico"}},{"code":"CJU","display_name":"Cheju","international_airport":false,"regional_airport":false,"location":{"latitude":33.5,"longitude":126.48333},"currency_code":"KRW","timezone":"Asia/Seoul","country":{"code":"KR","display_name":"Korea"}},{"code":"CKB","display_name":"Clarksburg","international_airport":false,"regional_airport":false,"location":{"latitude":39.283333,"longitude":-80.21667},"currency_code":"USD","timezone":"America/New_York","country":{"code":"US","display_name":"United States"}},{"code":"CKC","display_name":"Cherkassy","international_airport":false,"regional_airport":false,"location":{"latitude":49.45,"longitude":32.066666},"currency_code":"UAH","timezone":"Europe/Kiev","country":{"code":"UA","display_name":"Ukraine"}},{"code":"CKD","display_name":"Crooked Creek","international_airport":false,"regional_airport":false,"location":{"latitude":64.98333,"longitude":-141.85},"currency_code":"USD","timezone":"America/Anchorage","country":{"code":"US","display_name":"United States"}},{"code":"CKG","display_name":"Chongqing","international_airport":false,"regional_airport":false,"location":{"latitude":29.716667,"longitude":106.63333},"currency_code":"CNY","timezone":"Asia/Shanghai","country":{"code":"CN","display_name":"China"}},{"code":"CKH","display_name":"Chokurdah","international_airport":false,"regional_airport":false,"location":{"latitude":70.65,"longitude":147.83333},"currency_code":"RUB","timezone":"Europe/Kaliningrad","country":{"code":"RU","display_name":"Russian Fed"}},{"code":"CKI","display_name":"Croker Island","international_airport":false,"regional_airport":true,"location":{"latitude":-11.033334,"longitude":132.63333},"currency_code":"AUD","timezone":"Australia/Darwin","country":{"code":"AU","display_name":"Australia"}},{"code":"CKL","display_name":"Chkalovsky","international_airport":false,"regional_airport":false,"location":{"latitude":55.866665,"longitude":38.05},"currency_code":"RUB","timezone":"Europe/Moscow","country":{"code":"RU","display_name":"Russian Fed"}},{"code":"CKO","display_name":"Cornelio Procopio","international_airport":false,"regional_airport":false,"location":{"latitude":-23.116667,"longitude":-50.666668},"currency_code":"USD","timezone":"America/Sao_Paulo","country":{"code":"BR","display_name":"Brazil"}},{"code":"CKS","display_name":"Carajas","international_airport":false,"regional_airport":false,"location":{"latitude":-6.116667,"longitude":-50.0},"currency_code":"USD","timezone":"America/Sao_Paulo","country":{"code":"BR","display_name":"Brazil"}},{"code":"CKV","display_name":"Clarksville","international_airport":false,"regional_airport":false,"location":{"latitude":36.616665,"longitude":-87.4},"currency_code":"USD","timezone":"America/New_York","country":{"code":"US","display_name":"United States"}},{"code":"CKX","display_name":"Chicken","international_airport":false,"regional_airport":false,"location":{"latitude":64.066666,"longitude":-142.0},"currency_code":"USD","timezone":"America/Anchorage","country":{"code":"US","display_name":"United States"}},{"code":"CKY","display_name":"Conakry","international_airport":false,"regional_airport":false,"location":{"latitude":9.566667,"longitude":-13.616667},"currency_code":"GNF","timezone":"Etc/GMT","country":{"code":"GN","display_name":"Guinea"}},{"code":"CLA","display_name":"Comilla","international_airport":false,"regional_airport":false,"location":{"latitude":23.433332,"longitude":91.183334},"currency_code":"BDT","timezone":"Asia/Dhaka","country":{"code":"BD","display_name":"Bangladesh"}},{"code":"CLC","display_name":"Clear Lake City","international_airport":false,"regional_airport":false,"location":{"latitude":29.55,"longitude":-95.11667},"currency_code":"USD","timezone":"America/Chicago","country":{"code":"US","display_name":"United States"}},{"code":"CLD","display_name":"Carlsbad","international_airport":false,"regional_airport":false,"location":{"latitude":33.15,"longitude":-117.333336},"currency_code":"USD","timezone":"America/Los_Angeles","country":{"code":"US","display_name":"United States"}},{"code":"CLE","display_name":"Cleveland","international_airport":false,"regional_airport":false,"location":{"latitude":41.4,"longitude":-81.85},"currency_code":"USD","timezone":"America/New_York","country":{"code":"US","display_name":"United States"}},{"code":"CLG","display_name":"Coalinga","international_airport":false,"regional_airport":false,"location":{"latitude":36.133335,"longitude":-120.36667},"currency_code":"USD","timezone":"America/Los_Angeles","country":{"code":"US","display_name":"United States"}},{"code":"CLJ","display_name":"Cluj Napoca","international_airport":false,"regional_airport":false,"location":{"latitude":46.783333,"longitude":23.683332},"currency_code":"ROL","timezone":"Europe/Bucharest","country":{"code":"RO","display_name":"Romania"}},{"code":"CLL","display_name":"College Station","international_airport":false,"regional_airport":false,"location":{"latitude":30.583334,"longitude":-96.35},"currency_code":"USD","timezone":"America/Chicago","country":{"code":"US","display_name":"United States"}},{"code":"CLM","display_name":"Port Angeles","international_airport":false,"regional_airport":false,"location":{"latitude":48.116665,"longitude":-123.48333},"currency_code":"USD","timezone":"America/Los_Angeles","country":{"code":"US","display_name":"United States"}},{"code":"CLN","display_name":"Carolina","international_airport":false,"regional_airport":false,"location":{"latitude":-7.3333335,"longitude":-47.433334},"currency_code":"USD","timezone":"America/Sao_Paulo","country":{"code":"BR","display_name":"Brazil"}},{"code":"CLO","display_name":"Cali","international_airport":false,"regional_airport":false,"location":{"latitude":3.5333333,"longitude":-76.38333},"currency_code":"COP","timezone":"America/Bogota","country":{"code":"CO","display_name":"Colombia"}},{"code":"CLP","display_name":"Clarks Point","international_airport":false,"regional_airport":false,"location":{"latitude":58.833332,"longitude":-158.51666},"currency_code":"USD","timezone":"America/Anchorage","country":{"code":"US","display_name":"United States"}},{"code":"AAA","display_name":"Anaa","international_airport":false,"regional_airport":false,"location":{"latitude":-17.416666,"longitude":-145.5},"currency_code":"XPF","timezone":"Pacific/Tahiti","country":{"code":"PF","display_name":"French Polynesia"}},{"code":"AAB","display_name":"Arrabury","international_airport":false,"regional_airport":false,"location":{"latitude":-26.75,"longitude":141.0},"currency_code":"AUD","timezone":"Australia/Brisbane","country":{"code":"AU","display_name":"Australia"}},{"code":"AAC","display_name":"Al Arish","international_airport":false,"regional_airport":false,"location":{"latitude":31.166666,"longitude":33.833332},"currency_code":"EGP","timezone":"Africa/Cairo","country":{"code":"EG","display_name":"Egypt"}},{"code":"AAE","display_name":"Annaba","international_airport":false,"regional_airport":false,"location":{"latitude":36.816666,"longitude":7.8},"currency_code":"DZD","timezone":"Africa/Algiers","country":{"code":"DZ","display_name":"Algeria"}},{"code":"AAH","display_name":"Aachen","international_airport":false,"regional_airport":false,"location":{"latitude":50.766666,"longitude":6.1},"currency_code":"EUR","timezone":"Europe/Berlin","country":{"code":"DE","display_name":"Germany"}},{"code":"AAI","display_name":"Arraias","international_airport":false,"regional_airport":false,"location":{"latitude":-12.916667,"longitude":-46.916668},"currency_code":"USD","timezone":"America/Sao_Paulo","country":{"code":"BR","display_name":"Brazil"}},{"code":"AAK","display_name":"Aranuka","international_airport":false,"regional_airport":false,"location":{"latitude":0.16666667,"longitude":173.58333},"currency_code":"AUD","timezone":"Pacific/Auckland","country":{"code":"KI","display_name":"Kiribati"}},{"code":"AAL","display_name":"Aalborg","international_airport":false,"regional_airport":false,"location":{"latitude":57.083332,"longitude":9.85},"currency_code":"DKK","timezone":"Europe/Copenhagen","country":{"code":"DK","display_name":"Denmark"}},{"code":"AAM","display_name":"Mala Mala","international_airport":false,"regional_airport":false,"location":{"latitude":0.0,"longitude":0.0},"currency_code":"ZAR","timezone":"Africa/Johannesburg","country":{"code":"ZA","display_name":"South Africa"}},{"code":"AAN","display_name":"Al Ain","international_airport":false,"regional_airport":false,"location":{"latitude":24.233334,"longitude":55.766666},"currency_code":"AED","timezone":"Asia/Dubai","country":{"code":"AE","display_name":"United Arab Emirates"}},{"code":"AAO","display_name":"Anaco","international_airport":false,"regional_airport":false,"location":{"latitude":9.5,"longitude":-64.46667},"currency_code":"VEB","timezone":"America/Caracas","country":{"code":"VE","display_name":"Venezuela"}},{"code":"AAQ","display_name":"Anapa","international_airport":false,"regional_airport":false,"location":{"latitude":44.9,"longitude":37.333332},"currency_code":"RUB","timezone":"Europe/Moscow","country":{"code":"RU","display_name":"Russian Fed"}},{"code":"AAR","display_name":"Aarhus","international_airport":false,"regional_airport":false,"location":{"latitude":56.3,"longitude":10.25},"currency_code":"DKK","timezone":"Europe/Copenhagen","country":{"code":"DK","display_name":"Denmark"}},{"code":"AAS","display_name":"Apalapsili","international_airport":false,"regional_airport":false,"location":{"latitude":0.0,"longitude":0.0},"currency_code":"IDR","timezone":"Asia/Jayapura","country":{"code":"ID","display_name":"Indonesia"}},{"code":"AAT","display_name":"Altay","international_airport":false,"regional_airport":false,"location":{"latitude":47.8,"longitude":88.11667},"currency_code":"CNY","timezone":"Asia/Shanghai","country":{"code":"CN","display_name":"China"}},{"code":"AAU","display_name":"Asau","international_airport":false,"regional_airport":false,"location":{"latitude":-13.433333,"longitude":-172.58333},"currency_code":"WST","timezone":"Pacific/Apia","country":{"code":"WS","display_name":"Samoa"}},{"code":"AAV","display_name":"Alah","international_airport":false,"regional_airport":false,"location":{"latitude":6.8333335,"longitude":124.666664},"currency_code":"USD","timezone":"Asia/Manila","country":{"code":"PH","display_name":"Philippines"}},{"code":"AAX","display_name":"Araxa","international_airport":false,"regional_airport":false,"location":{"latitude":-19.616667,"longitude":-46.833332},"currency_code":"USD","timezone":"America/Sao_Paulo","country":{"code":"BR","display_name":"Brazil"}},{"code":"AAY","display_name":"Al Ghaydah","international_airport":false,"regional_airport":false,"location":{"latitude":16.2,"longitude":52.266666},"currency_code":"YER","timezone":"Asia/Aden","country":{"code":"YE","display_name":"Yemen Republic Of"}},{"code":"ABA","display_name":"Abakan","international_airport":false,"regional_airport":false,"location":{"latitude":53.716667,"longitude":91.416664},"currency_code":"RUB","timezone":"Asia/Krasnoyarsk","country":{"code":"RU","display_name":"Russian Fed"}},{"code":"ABC","display_name":"Albacete","international_airport":false,"regional_airport":false,"location":{"latitude":38.966667,"longitude":-1.85},"currency_code":"EUR","timezone":"Europe/Madrid","country":{"code":"ES","display_name":"Spain"}},{"code":"ABD","display_name":"Abadan","international_airport":false,"regional_airport":false,"location":{"latitude":30.366667,"longitude":48.233334},"currency_code":"IRR","timezone":"Asia/Tehran","country":{"code":"IR","display_name":"Iran"}},{"code":"ABE","display_name":"Allentown","international_airport":false,"regional_airport":false,"location":{"latitude":40.65,"longitude":-75.433334},"currency_code":"USD","timezone":"America/New_York","country":{"code":"US","display_name":"United States"}},{"code":"ABF","display_name":"Abaiang","international_airport":false,"regional_airport":false,"location":{"latitude":1.7166667,"longitude":173.0},"currency_code":"AUD","timezone":"Pacific/Auckland","country":{"code":"KI","display_name":"Kiribati"}},{"code":"ABG","display_name":"Abingdon","international_airport":false,"regional_airport":false,"location":{"latitude":-17.583334,"longitude":143.16667},"currency_code":"AUD","timezone":"Australia/Brisbane","country":{"code":"AU","display_name":"Australia"}},{"code":"ABH","display_name":"Alpha","international_airport":false,"regional_airport":false,"location":{"latitude":-23.616667,"longitude":146.61667},"currency_code":"AUD","timezone":"Australia/Brisbane","country":{"code":"AU","display_name":"Australia"}},{"code":"ABI","display_name":"Abilene","international_airport":false,"regional_airport":false,"location":{"latitude":32.4,"longitude":-99.666664},"currency_code":"USD","timezone":"America/Chicago","country":{"code":"US","display_name":"United States"}},{"code":"ABJ","display_name":"Abidjan","international_airport":false,"regional_airport":false,"location":{"latitude":5.25,"longitude":-3.9166667},"currency_code":"XAF","timezone":"Etc/GMT","country":{"code":"CI","display_name":"Ivory Coast"}},{"code":"ABK","display_name":"Kabri Dar","international_airport":false,"regional_airport":false,"location":{"latitude":6.75,"longitude":44.283333},"currency_code":"ETB","timezone":"Africa/Nairobi","country":{"code":"ET","display_name":"Ethiopia"}},{"code":"ABL","display_name":"Ambler","international_airport":false,"regional_airport":false,"location":{"latitude":67.166664,"longitude":-157.0},"currency_code":"USD","timezone":"America/Anchorage","country":{"code":"US","display_name":"United States"}},{"code":"ABM","display_name":"Bamaga","international_airport":false,"regional_airport":false,"location":{"latitude":-10.833333,"longitude":142.41667},"currency_code":"AUD","timezone":"Australia/Brisbane","country":{"code":"AU","display_name":"Australia"}},{"code":"ABN","display_name":"Albina","international_airport":false,"regional_airport":false,"location":{"latitude":5.483333,"longitude":-54.133335},"currency_code":"SRG","timezone":"America/Sao_Paulo","country":{"code":"SR","display_name":"Surinam"}},{"code":"ABP","display_name":"Atkamba","international_airport":false,"regional_airport":false,"location":{"latitude":-6.0666666,"longitude":141.1},"currency_code":"PGK","timezone":"Pacific/Saipan","country":{"code":"PG","display_name":"Papua New Guinea"}},{"code":"ABQ","display_name":"Albuquerque","international_airport":false,"regional_airport":false,"location":{"latitude":35.033333,"longitude":-106.6},"currency_code":"USD","timezone":"America/Denver","country":{"code":"US","display_name":"United States"}},{"code":"ABR","display_name":"Aberdeen","international_airport":false,"regional_airport":false,"location":{"latitude":45.45,"longitude":-98.416664},"currency_code":"USD","timezone":"America/Chicago","country":{"code":"US","display_name":"United States"}},{"code":"ABS","display_name":"Abu Simbel","international_airport":false,"regional_airport":false,"location":{"latitude":22.366667,"longitude":31.6},"currency_code":"EGP","timezone":"Africa/Cairo","country":{"code":"EG","display_name":"Egypt"}},{"code":"ABT","display_name":"Al Baha","international_airport":false,"regional_airport":false,"location":{"latitude":38.95,"longitude":-1.8666667},"currency_code":"SAR","timezone":"Asia/Riyadh","country":{"code":"SA","display_name":"Saudi Arabia"}},{"code":"ABU","display_name":"Atambua Haliwen","international_airport":false,"regional_airport":false,"location":{"latitude":-9.1,"longitude":124.916664},"currency_code":"IDR","timezone":"Asia/Makassar","country":{"code":"ID","display_name":"Indonesia"}},{"code":"ABV","display_name":"Abuja","international_airport":false,"regional_airport":false,"location":{"latitude":9.166667,"longitude":7.1},"currency_code":"NGN","timezone":"Africa/Algiers","country":{"code":"NG","display_name":"Nigeria"}},{"code":"ABX","display_name":"Albury","international_airport":false,"regional_airport":true,"location":{"latitude":-36.066666,"longitude":146.95},"currency_code":"AUD","timezone":"Australia/Sydney","country":{"code":"AU","display_name":"Australia"}},{"code":"ABY","display_name":"Albany","international_airport":false,"regional_airport":false,"location":{"latitude":31.533333,"longitude":-84.183334},"currency_code":"USD","timezone":"America/New_York","country":{"code":"US","display_name":"United States"}},{"code":"ABZ","display_name":"Aberdeen","international_airport":false,"regional_airport":false,"location":{"latitude":57.2,"longitude":-2.2},"currency_code":"GBP","timezone":"Europe/London","country":{"code":"GB","display_name":"United Kingdom"}},{"code":"ACA","display_name":"Acapulco","international_airport":false,"regional_airport":false,"location":{"latitude":16.75,"longitude":-99.75},"currency_code":"USD","timezone":"America/Mexico_City","country":{"code":"MX","display_name":"Mexico"}},{"code":"ACC","display_name":"Accra","international_airport":false,"regional_airport":false,"location":{"latitude":5.5833335,"longitude":-0.16666667},"currency_code":"GHC","timezone":"Etc/GMT","country":{"code":"GH","display_name":"Ghana"}},{"code":"ACD","display_name":"Acandi","international_airport":false,"regional_airport":false,"location":{"latitude":8.533334,"longitude":-77.333336},"currency_code":"COP","timezone":"America/Bogota","country":{"code":"CO","display_name":"Colombia"}},{"code":"ACE","display_name":"Lanzarote","international_airport":false,"regional_airport":false,"location":{"latitude":28.933332,"longitude":-13.6},"currency_code":"EUR","timezone":"Atlantic/Canary","country":{"code":"ES","display_name":"Spain"}},{"code":"ACH","display_name":"Altenrhein","international_airport":false,"regional_airport":false,"location":{"latitude":0.0,"longitude":0.0},"currency_code":"CHF","timezone":"Europe/Zurich","country":{"code":"CH","display_name":"Switzerland"}},{"code":"ACI","display_name":"Alderney","international_airport":false,"regional_airport":false,"location":{"latitude":49.716667,"longitude":-2.2},"currency_code":"GBP","timezone":"Europe/London","country":{"code":"GB","display_name":"United Kingdom"}},{"code":"ACK","display_name":"Nantucket","international_airport":false,"regional_airport":false,"location":{"latitude":41.25,"longitude":-70.05},"currency_code":"USD","timezone":"America/New_York","country":{"code":"US","display_name":"United States"}},{"code":"ACL","display_name":"Aguaclara","international_airport":false,"regional_airport":false,"location":{"latitude":4.75,"longitude":-73.01667},"currency_code":"COP","timezone":"America/Bogota","country":{"code":"CO","display_name":"Colombia"}},{"code":"ACM","display_name":"Arica","international_airport":false,"regional_airport":false,"location":{"latitude":-2.1166666,"longitude":-71.76667},"currency_code":"COP","timezone":"America/Bogota","country":{"code":"CO","display_name":"Colombia"}},{"code":"ACO","display_name":"Ascona","international_airport":false,"regional_airport":false,"location":{"latitude":0.0,"longitude":0.0},"currency_code":"CHF","timezone":"Europe/Zurich","country":{"code":"CH","display_name":"Switzerland"}},{"code":"ACP","display_name":"Sahand","international_airport":false,"regional_airport":false,"location":{"latitude":37.116665,"longitude":46.45},"currency_code":"IRR","timezone":"Asia/Tehran","country":{"code":"IR","display_name":"Iran"}},{"code":"ACR","display_name":"Araracuara","international_airport":false,"regional_airport":false,"location":{"latitude":-0.46666667,"longitude":-72.21667},"currency_code":"COP","timezone":"America/Bogota","country":{"code":"CO","display_name":"Colombia"}},{"code":"ACS","display_name":"Achinsk","international_airport":false,"regional_airport":false,"location":{"latitude":56.333332,"longitude":90.55},"currency_code":"RUB","timezone":"Asia/Krasnoyarsk","country":{"code":"RU","display_name":"Russian Fed"}},{"code":"ACT","display_name":"Waco","international_airport":false,"regional_airport":false,"location":{"latitude":31.6,"longitude":-97.21667},"currency_code":"USD","timezone":"America/Chicago","country":{"code":"US","display_name":"United States"}},{"code":"ACU","display_name":"Achutupo","international_airport":false,"regional_airport":false,"location":{"latitude":9.183333,"longitude":-78.0},"currency_code":"PAB","timezone":"America/Panama","country":{"code":"PA","display_name":"Panama"}},{"code":"ACV","display_name":"Eureka Arcata","international_airport":false,"regional_airport":false,"location":{"latitude":40.966667,"longitude":-124.1},"currency_code":"USD","timezone":"America/Los_Angeles","country":{"code":"US","display_name":"United States"}},{"code":"ACY","display_name":"Atlantic City","international_airport":false,"regional_airport":false,"location":{"latitude":39.45,"longitude":-74.566666},"currency_code":"USD","timezone":"America/New_York","country":{"code":"US","display_name":"United States"}},{"code":"ACZ","display_name":"Zabol","international_airport":false,"regional_airport":false,"location":{"latitude":31.016666,"longitude":61.483334},"currency_code":"IRR","timezone":"Asia/Tehran","country":{"code":"IR","display_name":"Iran"}},{"code":"ADA","display_name":"Adana","international_airport":false,"regional_airport":false,"location":{"latitude":36.983334,"longitude":35.266666},"currency_code":"TRL","timezone":"Europe/Istanbul","country":{"code":"TR","display_name":"Turkey"}},{"code":"ADB","display_name":"Izmir","international_airport":false,"regional_airport":false,"location":{"latitude":38.416668,"longitude":27.166666},"currency_code":"TRL","timezone":"Europe/Istanbul","country":{"code":"TR","display_name":"Turkey"}},{"code":"ADD","display_name":"Addis Ababa","international_airport":false,"regional_airport":false,"location":{"latitude":8.966666,"longitude":38.783333},"currency_code":"ETB","timezone":"Africa/Nairobi","country":{"code":"ET","display_name":"Ethiopia"}},{"code":"ADE","display_name":"Aden","international_airport":false,"regional_airport":false,"location":{"latitude":12.816667,"longitude":45.016666},"currency_code":"YER","timezone":"Asia/Aden","country":{"code":"YE","display_name":"Yemen Republic Of"}},{"code":"ADF","display_name":"Adiyaman","international_airport":false,"regional_airport":false,"location":{"latitude":37.716667,"longitude":38.45},"currency_code":"TRL","timezone":"Europe/Istanbul","country":{"code":"TR","display_name":"Turkey"}},{"code":"ADH","display_name":"Aldan","international_airport":false,"regional_airport":false,"location":{"latitude":58.733334,"longitude":125.36667},"currency_code":"RUB","timezone":"Asia/Yakutsk","country":{"code":"RU","display_name":"Russian Fed"}},{"code":"ADJ","display_name":"Amman (Marka)","international_airport":false,"regional_airport":false,"location":{"latitude":31.966667,"longitude":35.983334},"currency_code":"JOD","timezone":"Asia/Amman","country":{"code":"JO","display_name":"Jordan"}},{"code":"ADK","display_name":"Adak Island","international_airport":false,"regional_airport":false,"location":{"latitude":51.883335,"longitude":-176.63333},"currency_code":"USD","timezone":"America/Anchorage","country":{"code":"US","display_name":"United States"}},{"code":"ADL","display_name":"Adelaide","international_airport":true,"regional_airport":false,"location":{"latitude":-34.933334,"longitude":138.51666},"currency_code":"AUD","timezone":"Australia/Adelaide","country":{"code":"AU","display_name":"Australia"}},{"code":"ADM","display_name":"Ardmore","international_airport":false,"regional_airport":false,"location":{"latitude":34.3,"longitude":-97.01667},"currency_code":"USD","timezone":"America/Chicago","country":{"code":"US","display_name":"United States"}},{"code":"ADN","display_name":"Andes","international_airport":false,"regional_airport":false,"location":{"latitude":5.6666665,"longitude":-75.933334},"currency_code":"COP","timezone":"America/Bogota","country":{"code":"CO","display_name":"Colombia"}},{"code":"ADO","display_name":"Andamooka","international_airport":false,"regional_airport":false,"location":{"latitude":-30.483334,"longitude":137.11667},"currency_code":"AUD","timezone":"Australia/Adelaide","country":{"code":"AU","display_name":"Australia"}},{"code":"ADQ","display_name":"Kodiak","international_airport":false,"regional_airport":false,"location":{"latitude":57.75,"longitude":-152.48334},"currency_code":"USD","timezone":"America/Anchorage","country":{"code":"US","display_name":"United States"}},{"code":"ADS","display_name":"Dallas (Addison)","international_airport":false,"regional_airport":false,"location":{"latitude":32.966667,"longitude":-96.833336},"currency_code":"USD","timezone":"America/Chicago","country":{"code":"US","display_name":"United States"}},{"code":"ADU","display_name":"Ardabil","international_airport":false,"regional_airport":false,"location":{"latitude":38.25,"longitude":48.3},"currency_code":"IRR","timezone":"Asia/Tehran","country":{"code":"IR","display_name":"Iran"}},{"code":"ADV","display_name":"Andover","international_airport":false,"regional_airport":false,"location":{"latitude":51.216667,"longitude":-1.4666667},"currency_code":"GBP","timezone":"Europe/London","country":{"code":"GB","display_name":"United Kingdom"}},{"code":"ADW","display_name":"Camp Springs","international_airport":false,"regional_airport":false,"location":{"latitude":38.8,"longitude":-76.86667},"currency_code":"USD","timezone":"America/New_York","country":{"code":"US","display_name":"United States"}},{"code":"ADY","display_name":"Alldays","international_airport":false,"regional_airport":false,"location":{"latitude":-22.666666,"longitude":29.1},"currency_code":"ZAR","timezone":"Africa/Johannesburg","country":{"code":"ZA","display_name":"South Africa"}},{"code":"ADZ","display_name":"San Andres","international_airport":false,"regional_airport":false,"location":{"latitude":12.583333,"longitude":-81.71667},"currency_code":"COP","timezone":"America/Bogota","country":{"code":"CO","display_name":"Colombia"}},{"code":"AEA","display_name":"Abemama","international_airport":false,"regional_airport":false,"location":{"latitude":0.33333334,"longitude":173.85},"currency_code":"AUD","timezone":"Pacific/Auckland","country":{"code":"KI","display_name":"Kiribati"}},{"code":"AED","display_name":"Aleneva","international_airport":false,"regional_airport":false,"location":{"latitude":68.03333,"longitude":-162.9},"currency_code":"USD","timezone":"America/Anchorage","country":{"code":"US","display_name":"United States"}},{"code":"AEG","display_name":"Aseki","international_airport":false,"regional_airport":false,"location":{"latitude":1.3833333,"longitude":99.416664},"currency_code":"PGK","timezone":"Pacific/Saipan","country":{"code":"PG","display_name":"Papua New Guinea"}},{"code":"AEH","display_name":"Abecher","international_airport":false,"regional_airport":false,"location":{"latitude":13.833333,"longitude":20.833334},"currency_code":"XAF","timezone":"Africa/Algiers","country":{"code":"TD","display_name":"Chad"}},{"code":"AEK","display_name":"Aseki","international_airport":false,"regional_airport":false,"location":{"latitude":-7.3333335,"longitude":146.33333},"currency_code":"PGK","timezone":"Pacific/Saipan","country":{"code":"PG","display_name":"Papua New Guinea"}},{"code":"AEO","display_name":"Aioun El Atrouss","international_airport":false,"regional_airport":false,"location":{"latitude":16.716667,"longitude":-9.633333},"currency_code":"MRO","timezone":"Africa/Nouakchott","country":{"code":"MR","display_name":"Mauritania"}},{"code":"AEP","display_name":"Buenos Aires (Jorge Newbery)","international_airport":false,"regional_airport":false,"location":{"latitude":-34.566666,"longitude":-58.416668},"currency_code":"USD","timezone":"America/Buenos_Aires","country":{"code":"AR","display_name":"Argentina"}},{"code":"AER","display_name":"Sochi","international_airport":false,"regional_airport":false,"location":{"latitude":43.45,"longitude":39.933334},"currency_code":"RUB","timezone":"Europe/Moscow","country":{"code":"RU","display_name":"Russian Fed"}},{"code":"AES","display_name":"Aalesund","international_airport":false,"regional_airport":false,"location":{"latitude":62.466667,"longitude":6.1833334},"currency_code":"NOK","timezone":"Europe/Oslo","country":{"code":"NO","display_name":"Norway"}},{"code":"AET","display_name":"Allakaket","international_airport":false,"regional_airport":false,"location":{"latitude":66.5,"longitude":-152.75},"currency_code":"USD","timezone":"America/Anchorage","country":{"code":"US","display_name":"United States"}},{"code":"AEX","display_name":"Alexandria","international_airport":false,"regional_airport":false,"location":{"latitude":31.35,"longitude":-92.583336},"currency_code":"USD","timezone":"America/Chicago","country":{"code":"US","display_name":"United States"}},{"code":"AEY","display_name":"Akureyri","international_airport":false,"regional_airport":false,"location":{"latitude":65.65,"longitude":-18.066668},"currency_code":"ISK","timezone":"Atlantic/Reykjavik","country":{"code":"IS","display_name":"Iceland"}},{"code":"AFA","display_name":"San Rafael","international_airport":false,"regional_airport":false,"location":{"latitude":-34.583332,"longitude":-68.4},"currency_code":"USD","timezone":"America/Buenos_Aires","country":{"code":"AR","display_name":"Argentina"}},{"code":"AFD","display_name":"Port Alfred","international_airport":false,"regional_airport":false,"location":{"latitude":-33.6,"longitude":26.9},"currency_code":"ZAR","timezone":"Africa/Johannesburg","country":{"code":"ZA","display_name":"South Africa"}},{"code":"AFL","display_name":"Alta Floresta","international_airport":false,"regional_airport":false,"location":{"latitude":-9.85,"longitude":-56.1},"currency_code":"USD","timezone":"America/New_York","country":{"code":"BR","display_name":"Brazil"}},{"code":"AFR","display_name":"Afore","international_airport":false,"regional_airport":false,"location":{"latitude":-9.166667,"longitude":148.5},"currency_code":"PGK","timezone":"Pacific/Saipan","country":{"code":"PG","display_name":"Papua New Guinea"}},{"code":"AFS","display_name":"Zarafshan","international_airport":false,"regional_airport":false,"location":{"latitude":41.566666,"longitude":64.2},"currency_code":"UZS","timezone":"Asia/Tashkent","country":{"code":"UZ","display_name":"Uzbekistan"}},{"code":"AFT","display_name":"Afutara","international_airport":false,"regional_airport":false,"location":{"latitude":-9.116667,"longitude":160.51666},"currency_code":"SBD","timezone":"Pacific/Noumea","country":{"code":"SB","display_name":"Solomon Islands"}},{"code":"AFW","display_name":"Dallas Fort Worth Alliance","international_airport":false,"regional_airport":false,"location":{"latitude":0.0,"longitude":0.0},"currency_code":"USD","timezone":"America/Chicago","country":{"code":"US","display_name":"United States"}},{"code":"AFX","display_name":"Sabzavar","international_airport":false,"regional_airport":false,"location":{"latitude":33.05,"longitude":48.016666},"currency_code":"IRR","timezone":"Asia/Tehran","country":{"code":"IR","display_name":"Iran"}},{"code":"AGA","display_name":"Agadir","international_airport":false,"regional_airport":false,"location":{"latitude":30.383333,"longitude":-9.55},"currency_code":"MAD","timezone":"Africa/Casablanca","country":{"code":"MA","display_name":"Morocco"}},{"code":"AGB","display_name":"Munich","international_airport":false,"regional_airport":false,"location":{"latitude":48.35,"longitude":10.9},"currency_code":"EUR","timezone":"Europe/Berlin","country":{"code":"DE","display_name":"Germany"}},{"code":"AGE","display_name":"Wangerooge","international_airport":false,"regional_airport":false,"location":{"latitude":53.783333,"longitude":7.9},"currency_code":"EUR","timezone":"Europe/Berlin","country":{"code":"DE","display_name":"Germany"}},{"code":"AGF","display_name":"Agen","international_airport":false,"regional_airport":false,"location":{"latitude":44.166668,"longitude":0.5833333},"currency_code":"EUR","timezone":"Europe/Paris","country":{"code":"FR","display_name":"France"}},{"code":"AGG","display_name":"Angoram","international_airport":false,"regional_airport":false,"location":{"latitude":-4.0666666,"longitude":144.06667},"currency_code":"PGK","timezone":"Pacific/Saipan","country":{"code":"PG","display_name":"Papua New Guinea"}},{"code":"AGH","display_name":"Helsingborg","international_airport":false,"regional_airport":false,"location":{"latitude":56.283333,"longitude":12.85},"currency_code":"SEK","timezone":"Europe/Stockholm","country":{"code":"SE","display_name":"Sweden"}},{"code":"AGJ","display_name":"Aguni","international_airport":false,"regional_airport":false,"location":{"latitude":26.583334,"longitude":127.21667},"currency_code":"JPY","timezone":"Asia/Tokyo","country":{"code":"JP","display_name":"Japan"}},{"code":"AGK","display_name":"Kagua","international_airport":false,"regional_airport":false,"location":{"latitude":-6.4666667,"longitude":143.93333},"currency_code":"PGK","timezone":"Pacific/Saipan","country":{"code":"PG","display_name":"Papua New Guinea"}},{"code":"AGL","display_name":"Waningela","international_airport":false,"regional_airport":false,"location":{"latitude":-9.366667,"longitude":149.16667},"currency_code":"PGK","timezone":"Pacific/Saipan","country":{"code":"PG","display_name":"Papua New Guinea"}},{"code":"AGM","display_name":"Angmagssalik","international_airport":false,"regional_airport":false,"location":{"latitude":65.583336,"longitude":-38.0},"currency_code":"DKK","timezone":"America/Godthab","country":{"code":"GL","display_name":"Greenland"}},{"code":"AGN","display_name":"Angoon","international_airport":false,"regional_airport":false,"location":{"latitude":57.5,"longitude":-134.58333},"currency_code":"USD","timezone":"America/Anchorage","country":{"code":"US","display_name":"United States"}},{"code":"AGP","display_name":"Malaga","international_airport":false,"regional_airport":false,"location":{"latitude":36.666668,"longitude":-4.5},"currency_code":"EUR","timezone":"Europe/Madrid","country":{"code":"ES","display_name":"Spain"}},{"code":"AGR","display_name":"Agra","international_airport":false,"regional_airport":false,"location":{"latitude":27.15,"longitude":77.96667},"currency_code":"INR","timezone":"Asia/Calcutta","country":{"code":"IN","display_name":"India"}},{"code":"AGS","display_name":"Augusta","international_airport":false,"regional_airport":false,"location":{"latitude":33.366665,"longitude":-81.95},"currency_code":"USD","timezone":"America/New_York","country":{"code":"US","display_name":"United States"}},{"code":"AGT","display_name":"Ciudad Del Este","international_airport":false,"regional_airport":false,"location":{"latitude":0.0,"longitude":0.0},"currency_code":"PYG","timezone":"America/Asuncion","country":{"code":"PY","display_name":"Paraguay"}},{"code":"AGU","display_name":"Aguascalientes","international_airport":false,"regional_airport":false,"location":{"latitude":21.7,"longitude":-102.316666},"currency_code":"USD","timezone":"America/Mexico_City","country":{"code":"MX","display_name":"Mexico"}},{"code":"AGV","display_name":"Acarigua","international_airport":false,"regional_airport":false,"location":{"latitude":9.55,"longitude":-69.23333},"currency_code":"VEB","timezone":"America/Caracas","country":{"code":"VE","display_name":"Venezuela"}},{"code":"AGX","display_name":"Agatti Island","international_airport":false,"regional_airport":false,"location":{"latitude":10.833333,"longitude":72.2},"currency_code":"INR","timezone":"Asia/Calcutta","country":{"code":"IN","display_name":"India"}},{"code":"AGY","display_name":"Argyle Downs","international_airport":false,"regional_airport":false,"location":{"latitude":-16.0,"longitude":128.83333},"currency_code":"AUD","timezone":"Australia/Perth","country":{"code":"AU","display_name":"Australia"}},{"code":"AGZ","display_name":"Aggeneys","international_airport":false,"regional_airport":false,"location":{"latitude":-29.05,"longitude":18.85},"currency_code":"ZAR","timezone":"Africa/Johannesburg","country":{"code":"ZA","display_name":"South Africa"}},{"code":"AHB","display_name":"Abha","international_airport":false,"regional_airport":false,"location":{"latitude":18.233334,"longitude":42.65},"currency_code":"SAR","timezone":"Asia/Riyadh","country":{"code":"SA","display_name":"Saudi Arabia"}},{"code":"AHD","display_name":"Ardmore","international_airport":false,"regional_airport":false,"location":{"latitude":-17.366667,"longitude":123.65},"currency_code":"USD","timezone":"America/Chicago","country":{"code":"US","display_name":"United States"}},{"code":"AHE","display_name":"Ahe","international_airport":false,"regional_airport":false,"location":{"latitude":-14.4,"longitude":-146.25},"currency_code":"XPF","timezone":"Pacific/Tahiti","country":{"code":"PF","display_name":"French Polynesia"}},{"code":"AHH","display_name":"Amery","international_airport":false,"regional_airport":false,"location":{"latitude":45.3,"longitude":-92.35},"currency_code":"USD","timezone":"America/Chicago","country":{"code":"US","display_name":"United States"}},{"code":"AHI","display_name":"Amahai","international_airport":false,"regional_airport":false,"location":{"latitude":-3.3166666,"longitude":128.93333},"currency_code":"IDR","timezone":"Asia/Jayapura","country":{"code":"ID","display_name":"Indonesia"}},{"code":"AHL","display_name":"Aishalton","international_airport":false,"regional_airport":false,"location":{"latitude":2.55,"longitude":-59.266666},"currency_code":"GYD","timezone":"America/New_York","country":{"code":"GY","display_name":"Guyana"}},{"code":"AHN","display_name":"Athens","international_airport":false,"regional_airport":false,"location":{"latitude":33.95,"longitude":-83.4},"currency_code":"USD","timezone":"America/New_York","country":{"code":"US","display_name":"United States"}},{"code":"AHO","display_name":"Alghero","international_airport":false,"regional_airport":false,"location":{"latitude":40.616665,"longitude":8.283334},"currency_code":"EUR","timezone":"Europe/Rome","country":{"code":"IT","display_name":"Italy"}},{"code":"AHS","display_name":"Ahuas","international_airport":false,"regional_airport":false,"location":{"latitude":15.483334,"longitude":-84.46667},"currency_code":"HNL","timezone":"America/Tegucigalpa","country":{"code":"HN","display_name":"Honduras"}},{"code":"AHU","display_name":"Al Hoceima","international_airport":false,"regional_airport":false,"location":{"latitude":35.183334,"longitude":-3.8333333},"currency_code":"MAD","timezone":"Africa/Casablanca","country":{"code":"MA","display_name":"Morocco"}},{"code":"AIA","display_name":"Alliance","international_airport":false,"regional_airport":false,"location":{"latitude":42.05,"longitude":-102.8},"currency_code":"USD","timezone":"America/Chicago","country":{"code":"US","display_name":"United States"}},{"code":"AIB","display_name":"Anita Bay","international_airport":false,"regional_airport":false,"location":{"latitude":56.233334,"longitude":-132.38333},"currency_code":"USD","timezone":"America/Anchorage","country":{"code":"US","display_name":"United States"}},{"code":"AIC","display_name":"Airok","international_airport":false,"regional_airport":false,"location":{"latitude":7.1,"longitude":171.23334},"currency_code":"USD","timezone":"Pacific/Auckland","country":{"code":"MH","display_name":"Marshall Islands"}},{"code":"AIE","display_name":"Aiome","international_airport":false,"regional_airport":false,"location":{"latitude":-5.133333,"longitude":144.75},"currency_code":"PGK","timezone":"Pacific/Saipan","country":{"code":"PG","display_name":"Papua New Guinea"}},{"code":"AIF","display_name":"Assis","international_airport":false,"regional_airport":false,"location":{"latitude":-22.616667,"longitude":-50.416668},"currency_code":"USD","timezone":"America/Sao_Paulo","country":{"code":"BR","display_name":"Brazil"}},{"code":"AIM","display_name":"Ailuk","international_airport":false,"regional_airport":false,"location":{"latitude":10.583333,"longitude":169.88333},"currency_code":"USD","timezone":"Pacific/Auckland","country":{"code":"MH","display_name":"Marshall Islands"}},{"code":"AIN","display_name":"Wainwright","international_airport":false,"regional_airport":false,"location":{"latitude":70.6,"longitude":-159.85},"currency_code":"USD","timezone":"America/Anchorage","country":{"code":"US","display_name":"United States"}},{"code":"AIO","display_name":"Atlantic","international_airport":false,"regional_airport":false,"location":{"latitude":41.4,"longitude":-95.01667},"currency_code":"USD","timezone":"America/Chicago","country":{"code":"US","display_name":"United States"}},{"code":"AIP","display_name":"Ailinglapalap","international_airport":false,"regional_airport":false,"location":{"latitude":7.5,"longitude":168.66667},"currency_code":"USD","timezone":"Pacific/Auckland","country":{"code":"MH","display_name":"Marshall Islands"}},{"code":"AIR","display_name":"Aripuana","international_airport":false,"regional_airport":false,"location":{"latitude":-10.25,"longitude":-59.383335},"currency_code":"USD","timezone":"America/New_York","country":{"code":"BR","display_name":"Brazil"}},{"code":"AIS","display_name":"Arorae Island","international_airport":false,"regional_airport":false,"location":{"latitude":-2.65,"longitude":176.9},"currency_code":"AUD","timezone":"Pacific/Auckland","country":{"code":"KI","display_name":"Kiribati"}},{"code":"AIT","display_name":"Aitutaki","international_airport":false,"regional_airport":false,"location":{"latitude":-18.866667,"longitude":-159.76666},"currency_code":"NZD","timezone":"Pacific/Rarotonga","country":{"code":"CK","display_name":"Cook Islands"}},{"code":"AIU","display_name":"Atiu","international_airport":false,"regional_airport":false,"location":{"latitude":-20.0,"longitude":-158.11667},"currency_code":"NZD","timezone":"Pacific/Rarotonga","country":{"code":"CK","display_name":"Cook Islands"}},{"code":"AIY","display_name":"Atlantic City","international_airport":false,"regional_airport":false,"location":{"latitude":39.383335,"longitude":-74.45},"currency_code":"USD","timezone":"America/New_York","country":{"code":"US","display_name":"United States"}},{"code":"AIZ","display_name":"Lake Of Ozarks","international_airport":false,"regional_airport":false,"location":{"latitude":38.083332,"longitude":-92.53333},"currency_code":"USD","timezone":"America/Chicago","country":{"code":"US","display_name":"United States"}},{"code":"AJA","display_name":"Ajaccio Corsica","international_airport":false,"regional_airport":false,"location":{"latitude":41.916668,"longitude":8.8},"currency_code":"EUR","timezone":"Europe/Paris","country":{"code":"FR","display_name":"France"}},{"code":"AJF","display_name":"Jouf","international_airport":false,"regional_airport":false,"location":{"latitude":29.783333,"longitude":39.866665},"currency_code":"SAR","timezone":"Asia/Riyadh","country":{"code":"SA","display_name":"Saudi Arabia"}},{"code":"AJI","display_name":"Agri","international_airport":false,"regional_airport":false,"location":{"latitude":39.65,"longitude":43.016666},"currency_code":"TRL","timezone":"Europe/Istanbul","country":{"code":"TR","display_name":"Turkey"}},{"code":"AJL","display_name":"Aizawl","international_airport":false,"regional_airport":false,"location":{"latitude":23.75,"longitude":92.75},"currency_code":"INR","timezone":"Asia/Calcutta","country":{"code":"IN","display_name":"India"}},{"code":"AJN","display_name":"Anjouan","international_airport":false,"regional_airport":false,"location":{"latitude":-12.133333,"longitude":44.433334},"currency_code":"KMF","timezone":"Indian/Mayotte","country":{"code":"KM","display_name":"Comoros"}},{"code":"AJO","display_name":"Al Jouf","international_airport":false,"regional_airport":false,"location":{"latitude":29.766666,"longitude":40.083332},"currency_code":"YER","timezone":"Asia/Aden","country":{"code":"YE","display_name":"Yemen Republic Of"}},{"code":"AJR","display_name":"Arvidsjaur","international_airport":false,"regional_airport":false,"location":{"latitude":65.61667,"longitude":19.016666},"currency_code":"SEK","timezone":"Europe/Stockholm","country":{"code":"SE","display_name":"Sweden"}},{"code":"AJU","display_name":"Aracaju","international_airport":false,"regional_airport":false,"location":{"latitude":-10.983334,"longitude":-37.066666},"currency_code":"USD","timezone":"America/Sao_Paulo","country":{"code":"BR","display_name":"Brazil"}},{"code":"AJY","display_name":"Agades","international_airport":false,"regional_airport":false,"location":{"latitude":16.95,"longitude":7.9833336},"currency_code":"XOF","timezone":"Africa/Algiers","country":{"code":"NE","display_name":"Niger"}},{"code":"AKA","display_name":"Ankang","international_airport":false,"regional_airport":false,"location":{"latitude":32.666668,"longitude":109.2},"currency_code":"CNY","timezone":"Asia/Shanghai","country":{"code":"CN","display_name":"China"}},{"code":"AKB","display_name":"Atka","international_airport":false,"regional_airport":false,"location":{"latitude":52.233334,"longitude":-174.25},"currency_code":"USD","timezone":"America/Anchorage","country":{"code":"US","display_name":"United States"}},{"code":"AKD","display_name":"Akola","international_airport":false,"regional_airport":false,"location":{"latitude":0.0,"longitude":0.0},"currency_code":"INR","timezone":"Asia/Calcutta","country":{"code":"IN","display_name":"India"}},{"code":"AKE","display_name":"Akieni","international_airport":false,"regional_airport":false,"location":{"latitude":-1.1666666,"longitude":13.866667},"currency_code":"XAF","timezone":"Africa/Algiers","country":{"code":"GA","display_name":"Gabon"}},{"code":"AKF","display_name":"Kufrah","international_airport":false,"regional_airport":false,"location":{"latitude":24.166666,"longitude":23.3},"currency_code":"LYD","timezone":"Africa/Tripoli","country":{"code":"LY","display_name":"Libya"}},{"code":"AKG","display_name":"Anguganak","international_airport":false,"regional_airport":false,"location":{"latitude":-3.5666666,"longitude":142.2},"currency_code":"PGK","timezone":"Pacific/Saipan","country":{"code":"PG","display_name":"Papua New Guinea"}},{"code":"AKI","display_name":"Akiak","international_airport":false,"regional_airport":false,"location":{"latitude":60.85,"longitude":-161.21666},"currency_code":"USD","timezone":"America/Anchorage","country":{"code":"US","display_name":"United States"}},{"code":"AKJ","display_name":"Asahikawa","international_airport":false,"regional_airport":false,"location":{"latitude":43.666668,"longitude":142.45},"currency_code":"JPY","timezone":"Asia/Tokyo","country":{"code":"JP","display_name":"Japan"}},{"code":"AKK","display_name":"Akhiok","international_airport":false,"regional_airport":false,"location":{"latitude":56.966667,"longitude":-154.3},"currency_code":"USD","timezone":"America/Anchorage","country":{"code":"US","display_name":"United States"}},{"code":"AKL","display_name":"Auckland","international_airport":true,"regional_airport":false,"location":{"latitude":-37.0,"longitude":174.78334},"currency_code":"NZD","timezone":"Pacific/Auckland","country":{"code":"NZ","display_name":"New Zealand"}},{"code":"AKN","display_name":"King Salmon","international_airport":false,"regional_airport":false,"location":{"latitude":58.666668,"longitude":-156.63333},"currency_code":"USD","timezone":"America/Anchorage","country":{"code":"US","display_name":"United States"}},{"code":"AKO","display_name":"Akron","international_airport":false,"regional_airport":false,"location":{"latitude":39.0,"longitude":-97.0},"currency_code":"USD","timezone":"America/Los_Angeles","country":{"code":"US","display_name":"United States"}},{"code":"AKP","display_name":"Anaktuvuk Pass","international_airport":false,"regional_airport":false,"location":{"latitude":68.13333,"longitude":-151.73334},"currency_code":"USD","timezone":"America/Anchorage","country":{"code":"US","display_name":"United States"}},{"code":"AKR","display_name":"Akure","international_airport":false,"regional_airport":false,"location":{"latitude":41.033333,"longitude":-81.46667},"currency_code":"NGN","timezone":"Africa/Algiers","country":{"code":"NG","display_name":"Nigeria"}},{"code":"AKS","display_name":"Auki","international_airport":false,"regional_airport":false,"location":{"latitude":-8.75,"longitude":160.73334},"currency_code":"SBD","timezone":"Pacific/Noumea","country":{"code":"SB","display_name":"Solomon Islands"}},{"code":"AKU","display_name":"Aksu","international_airport":false,"regional_airport":false,"location":{"latitude":41.166668,"longitude":80.333336},"currency_code":"CNY","timezone":"Asia/Shanghai","country":{"code":"CN","display_name":"China"}},{"code":"AKV","display_name":"Akulivik","international_airport":false,"regional_airport":false,"location":{"latitude":60.666668,"longitude":-78.75},"currency_code":"CAD","timezone":"America/Montreal","country":{"code":"CA","display_name":"Canada"}},{"code":"AKX","display_name":"Aktyubinsk","international_airport":false,"regional_airport":false,"location":{"latitude":50.266666,"longitude":57.216667},"currency_code":"KZT","timezone":"Asia/Aqtau","country":{"code":"KZ","display_name":"Kazakhstan"}},{"code":"AKY","display_name":"Sittwe","international_airport":false,"regional_airport":false,"location":{"latitude":20.116667,"longitude":92.86667},"currency_code":"MMK","timezone":"Asia/Rangoon","country":{"code":"MM","display_name":"Myanmar"}},{"code":"ALA","display_name":"Almaty","international_airport":false,"regional_airport":false,"location":{"latitude":43.316666,"longitude":76.916664},"currency_code":"KZT","timezone":"Asia/Almaty","country":{"code":"KZ","display_name":"Kazakhstan"}},{"code":"ALB","display_name":"Albany (US)","international_airport":false,"regional_airport":false,"location":{"latitude":42.733334,"longitude":-73.8},"currency_code":"USD","timezone":"America/New_York","country":{"code":"US","display_name":"United States"}},{"code":"ALC","display_name":"Alicante","international_airport":false,"regional_airport":false,"location":{"latitude":38.266666,"longitude":-0.55},"currency_code":"EUR","timezone":"Europe/Madrid","country":{"code":"ES","display_name":"Spain"}},{"code":"ALF","display_name":"Alta","international_airport":false,"regional_airport":false,"location":{"latitude":70.0,"longitude":23.25},"currency_code":"NOK","timezone":"Europe/Oslo","country":{"code":"NO","display_name":"Norway"}},{"code":"ALG","display_name":"Algiers","international_airport":true,"regional_airport":false,"location":{"latitude":36.683334,"longitude":3.2166667},"currency_code":"DZD","timezone":"Africa/Algiers","country":{"code":"DZ","display_name":"Algeria"}},{"code":"ALH","display_name":"Albany","international_airport":false,"regional_airport":true,"location":{"latitude":-34.933334,"longitude":117.8},"currency_code":"AUD","timezone":"Australia/Perth","country":{"code":"AU","display_name":"Australia"}},{"code":"ALI","display_name":"Alenquer","international_airport":false,"regional_airport":false,"location":{"latitude":27.733334,"longitude":-98.01667},"currency_code":"USD","timezone":"America/Sao_Paulo","country":{"code":"BR","display_name":"Brazil"}},{"code":"ALJ","display_name":"Alexander Bay","international_airport":false,"regional_airport":false,"location":{"latitude":-28.566668,"longitude":16.533333},"currency_code":"ZAR","timezone":"Africa/Johannesburg","country":{"code":"ZA","display_name":"South Africa"}},{"code":"ALK","display_name":"Asela","international_airport":false,"regional_airport":false,"location":{"latitude":7.9666667,"longitude":39.066666},"currency_code":"ETB","timezone":"Africa/Nairobi","country":{"code":"ET","display_name":"Ethiopia"}},{"code":"ALL","display_name":"Albenga","international_airport":false,"regional_airport":false,"location":{"latitude":44.05,"longitude":8.116667},"currency_code":"EUR","timezone":"Europe/Rome","country":{"code":"IT","display_name":"Italy"}},{"code":"ALM","display_name":"Alamogordo","international_airport":false,"regional_airport":false,"location":{"latitude":32.833332,"longitude":-105.98333},"currency_code":"USD","timezone":"America/Denver","country":{"code":"US","display_name":"United States"}},{"code":"ALO","display_name":"Waterloo","international_airport":false,"regional_airport":false,"location":{"latitude":42.55,"longitude":-92.4},"currency_code":"USD","timezone":"America/Chicago","country":{"code":"US","display_name":"United States"}},{"code":"ALP","display_name":"Aleppo","international_airport":false,"regional_airport":false,"location":{"latitude":36.166668,"longitude":37.216667},"currency_code":"SYP","timezone":"Asia/Damascus","country":{"code":"SY","display_name":"Syria"}},{"code":"ALQ","display_name":"Alegrete","international_airport":false,"regional_airport":false,"location":{"latitude":-29.75,"longitude":-55.766666},"currency_code":"USD","timezone":"America/Sao_Paulo","country":{"code":"BR","display_name":"Brazil"}},{"code":"ALR","display_name":"Alexandra","international_airport":false,"regional_airport":false,"location":{"latitude":-45.233334,"longitude":169.43333},"currency_code":"NZD","timezone":"Pacific/Auckland","country":{"code":"NZ","display_name":"New Zealand"}},{"code":"ALS","display_name":"Alamosa","international_airport":false,"regional_airport":false,"location":{"latitude":37.433334,"longitude":-105.85},"currency_code":"USD","timezone":"America/Denver","country":{"code":"US","display_name":"United States"}},{"code":"ALT","display_name":"Alenquer","international_airport":false,"regional_airport":false,"location":{"latitude":-1.9666667,"longitude":-54.75},"currency_code":"USD","timezone":"America/Sao_Paulo","country":{"code":"BR","display_name":"Brazil"}},{"code":"ALU","display_name":"Alula","international_airport":false,"regional_airport":false,"location":{"latitude":11.983334,"longitude":50.8},"currency_code":"SOS","timezone":"Africa/Mogadishu","country":{"code":"SO","display_name":"Somalia"}},